[
    {
        "name": "跨越新科技",
        "link": "https://www.zhipin.com/job_detail/d864a6fdc8b5f06c1XB-3N26ElM~.html",
        "address": "北京朝阳区宏源大厦802",
        "lng": 116.49710975104475,
        "lat": 39.99119175900615
    },
    {
        "name": "文思海辉",
        "link": "https://www.zhipin.com/job_detail/58f676f1f16062931XB53tS5GVE~.html",
        "address": "北京东城区安定门",
        "lng": 116.41702551479618,
        "lat": 39.95933119729549
    },
    {
        "name": "百度",
        "link": "https://www.zhipin.com/job_detail/3a03f2e8375f78f91nNy2ty6EFE~.html",
        "address": "北京海淀区百度科技园",
        "lng": 116.28142159184245,
        "lat": 40.05050481827517
    },
    {
        "name": "VIPKID",
        "link": "https://www.zhipin.com/job_detail/0cab557d205dd1ca1nNz2dq0FFc~.html",
        "address": "北京东城区洪恩观大米科技有限公司",
        "lng": 116.42188470126446,
        "lat": 39.93857401298612
    },
    {
        "name": "中科软",
        "link": "https://www.zhipin.com/job_detail/59c050340e5073590Hxy2tw~.html",
        "address": "北京海淀区北京理工大学中关村校区国防科技园5号楼 1层",
        "lng": 116.32294862424591,
        "lat": 39.96694634964199
    },
    {
        "name": "蚂蚁金服",
        "link": "https://www.zhipin.com/job_detail/d49e8ff3cc07a2ba1HB-3dW-FFc~.html",
        "address": "北京朝阳区阿里中心.望京A座北京市朝阳区望京东园四区9号楼-阿里中心.望京A座",
        "lng": 116.48934660381059,
        "lat": 40.002410085222614
    },
    {
        "name": "博彦科技",
        "link": "https://www.zhipin.com/job_detail/3e5a3c03e8ebcde41XF9396-FVE~.html",
        "address": "北京海淀区海淀区 知春路 银科大厦银科大厦",
        "lng": 116.31276081389787,
        "lat": 39.98794410818208
    },
    {
        "name": "奇虎360",
        "link": "https://www.zhipin.com/job_detail/edc3d82b8e35bf411nB60tu4GVA~.html",
        "address": "北京朝阳区电子城·国际电子总部2号楼",
        "lng": 116.46188470818379,
        "lat": 39.843006447941484
    },
    {
        "name": "文思海辉技术有限公司",
        "link": "https://www.zhipin.com/job_detail/110ec6f5983a36b91HBz2d24GFo~.html",
        "address": "北京朝阳区朝来高科技产业园",
        "lng": 116.47837112775069,
        "lat": 40.02463474551505
    },
    {
        "name": "今日头条",
        "link": "https://www.zhipin.com/job_detail/b5443bce0bc9c8461HV62ty8ElA~.html",
        "address": "北京海淀区中国卫星通信大厦",
        "lng": 116.33529090627484,
        "lat": 39.982640918353646
    },
    {
        "name": "伴鱼",
        "link": "https://www.zhipin.com/job_detail/828828e3959c573d1HZ93969GFE~.html",
        "address": "北京市 朝阳区 健翔大厦 512",
        "lng": 116.38757865863654,
        "lat": 39.98650165722025
    },
    {
        "name": "协合新能源",
        "link": "https://www.zhipin.com/job_detail/5572ba46b4e761ff1Hd-3d69GFo~.html",
        "address": "北京市 海淀区 主语国际中心9座",
        "lng": 116.33149363144342,
        "lat": 39.94072615709913
    },
    {
        "name": "中软国际",
        "link": "https://www.zhipin.com/job_detail/7a6258fa5d01050e1XR-2dy1FlA~.html",
        "address": "北京市 朝阳区 朝阳区 三元桥国门大厦",
        "lng": 116.4553861532262,
        "lat": 39.96462620047072
    },
    {
        "name": "东华软件",
        "link": "https://www.zhipin.com/job_detail/875da68f16b856521HF40tm_EVQ~.html",
        "address": "北京海淀区东华合创大厦停车场(出口)",
        "lng": 116.34420612403743,
        "lat": 39.98442467384471
    },
    {
        "name": "微创时代",
        "link": "https://www.zhipin.com/job_detail/7deb00e071b0f3c01XF93N28GFc~.html",
        "address": "北京朝阳区紫月路18号院6号楼2层",
        "lng": 116.47820599135049,
        "lat": 40.025895393966096
    },
    {
        "name": "VIPKID",
        "link": "https://www.zhipin.com/job_detail/c927604359a888de1XR42t-5ElU~.html",
        "address": "北京朝阳区达美中心",
        "lng": 116.52257242823364,
        "lat": 39.943483134725
    },
    {
        "name": "瓜子二手车直卖网",
        "link": "https://www.zhipin.com/job_detail/6d96f44cadde97411Xd93d20GVY~.html",
        "address": "北京市 朝阳区 诺金中心",
        "lng": 116.48813242982904,
        "lat": 39.98298661690434
    },
    {
        "name": "新致软件",
        "link": "https://www.zhipin.com/job_detail/26e113af529156991XB929i5GVA~.html",
        "address": "北京市 昌平区 生命科学园(地铁站)",
        "lng": 116.28385999004756,
        "lat": 40.10342303655989
    },
    {
        "name": "VIPKID",
        "link": "https://www.zhipin.com/job_detail/1e3249febaff7c2d1X1629i_GFc~.html",
        "address": "北京朝阳区达美中心t1",
        "lng": 116.52257242823364,
        "lat": 39.943483134725
    },
    {
        "name": "考虫网",
        "link": "https://www.zhipin.com/job_detail/af07159180623d841X143NW6F1E~.html",
        "address": "北京朝阳区兆泰国际中心c座10楼",
        "lng": 116.44248581506871,
        "lat": 39.925096360876346
    },
    {
        "name": "今日头条",
        "link": "https://www.zhipin.com/job_detail/83df35cdbcbfdd121HBz09q0GVs~.html",
        "address": "北京海淀区北京字节跳动科技有限公司",
        "lng": 116.23967780102151,
        "lat": 40.03316204507791
    },
    {
        "name": "好未来",
        "link": "https://www.zhipin.com/job_detail/1ccf01dec2116ca91HBz09y-ElY~.html",
        "address": "北京海淀区海龙大厦",
        "lng": 116.32214410901761,
        "lat": 39.98931856876689
    },
    {
        "name": "蚂蚁金服",
        "link": "https://www.zhipin.com/job_detail/19e1eedbfc9509291HF43dW4FVE~.html",
        "address": "北京海淀区互联网金融中心23层",
        "lng": 116.3196243575706,
        "lat": 39.98536347742666
    },
    {
        "name": "阿里巴巴集团",
        "link": "https://www.zhipin.com/job_detail/04a3eed7c30235df1HB409u7F1E~.html",
        "address": "北京朝阳区阿里巴巴科技(北京)有限公司",
        "lng": 116.52169489108084,
        "lat": 39.95895316640668
    },
    {
        "name": "百度",
        "link": "https://www.zhipin.com/job_detail/b974ff13595385ef1HBz3t2-FVc~.html",
        "address": "北京市 海淀区 百度大厦B座",
        "lng": 116.30748588668901,
        "lat": 40.05688999525306
    },
    {
        "name": "腾讯",
        "link": "https://www.zhipin.com/job_detail/ee75bb2a287b51941XJ-3ti-EVM~.html",
        "address": "北京海淀区中国技术交易大厦",
        "lng": 116.31404683165918,
        "lat": 39.990133766537
    },
    {
        "name": "百度在线",
        "link": "https://www.zhipin.com/job_detail/27068ba5a716b34a1XFy2NS_EFo~.html",
        "address": "北京海淀区百度科技园1号楼",
        "lng": 116.28142159184245,
        "lat": 40.05050481827517
    },
    {
        "name": "凡普金科",
        "link": "https://www.zhipin.com/job_detail/b9affd6e430494051nB_2d26FVs~.html",
        "address": "北京东城区银河SOHO",
        "lng": 116.43972560789769,
        "lat": 39.92658353763471
    },
    {
        "name": "小米",
        "link": "https://www.zhipin.com/job_detail/ad5160f9a072651e1HR439y-GFM~.html",
        "address": "北京海淀区科利源大厦小米6期",
        "lng": 116.33920431224598,
        "lat": 40.045599562659646
    },
    {
        "name": "软通动力",
        "link": "https://www.zhipin.com/job_detail/38662b3a326f54c91nxy3t67GFo~.html",
        "address": "北京海淀区西二旗(地铁站)西二旗",
        "lng": 116.31505293383036,
        "lat": 40.06148973650146
    },
    {
        "name": "阿里集团",
        "link": "https://www.zhipin.com/job_detail/6b9b5fdd559592fc1XFy2920Flc~.html",
        "address": "北京朝阳区绿地中心",
        "lng": 116.49283942763348,
        "lat": 40.00643926445486
    },
    {
        "name": "今日头条",
        "link": "https://www.zhipin.com/job_detail/f6e91b617736efbb1HZ509u_EFc~.html",
        "address": "北京海淀区中航广场",
        "lng": 116.33553003250668,
        "lat": 39.977750204477125
    },
    {
        "name": "饿了么",
        "link": "https://www.zhipin.com/job_detail/5e97c8945250f3fa1HF43Nu6GFM~.html",
        "address": "北京海淀区中国电子彩虹集团(信息路)",
        "lng": 116.31467502658367,
        "lat": 40.04446164667349
    },
    {
        "name": "好未来",
        "link": "https://www.zhipin.com/job_detail/0a8f2368bbf25f081nx63927EFQ~.html",
        "address": "北京市 海淀区 中关村e世界A座 5 层",
        "lng": 116.32201185509061,
        "lat": 39.987297500142944
    },
    {
        "name": "滴滴出行",
        "link": "https://www.zhipin.com/job_detail/bb2472563453ead91X183N64FVU~.html",
        "address": "北京海淀区滴滴总部",
        "lng": 116.23967780102151,
        "lat": 40.03316204507791
    },
    {
        "name": "中科软",
        "link": "https://www.zhipin.com/job_detail/f3a9f850ee21208d1Xd50tq5E1I~.html",
        "address": "北京朝阳区世茂大厦",
        "lng": 116.47765168474912,
        "lat": 39.913257068310294
    },
    {
        "name": "巴恩",
        "link": "https://www.zhipin.com/job_detail/5e4cd5903434e05e1HBz3Nu1Elo~.html",
        "address": "北京市 海淀区 银谷大厦 银谷大厦",
        "lng": 116.3408071057674,
        "lat": 39.992806112834735
    },
    {
        "name": "我要车",
        "link": "https://www.zhipin.com/job_detail/fd900cb498dfeed91HZ83Ny6F1A~.html",
        "address": "北京市 朝阳区 酒仙桥北路甲10号院105号楼 东楼",
        "lng": 116.5121901167766,
        "lat": 39.99105337086109
    },
    {
        "name": "京东数字科技",
        "link": "https://www.zhipin.com/job_detail/d2b13316aab31ca41XVy3929ElU~.html",
        "address": "北京大兴区京东集团总部",
        "lng": 116.42519459737913,
        "lat": 39.652790118364464
    },
    {
        "name": "汽车之家",
        "link": "https://www.zhipin.com/job_detail/e85fe0fa171b6f3f1Hd72t64F1U~.html",
        "address": "北京海淀区中国电子大厦8层",
        "lng": 116.32205288609309,
        "lat": 40.02616552170081
    },
    {
        "name": "中软国际",
        "link": "https://www.zhipin.com/job_detail/bf32d841910c6ad01XR-2dS9EFs~.html",
        "address": "北京西城区金融街E区",
        "lng": 116.36866000593524,
        "lat": 39.92654575114306
    },
    {
        "name": "软通动力集团",
        "link": "https://www.zhipin.com/job_detail/b6201b7f7e66b2ae1HF4096_EFM~.html",
        "address": "北京海淀区领航科技大厦",
        "lng": 116.23967780102151,
        "lat": 40.03316204507791
    },
    {
        "name": "朴新教育",
        "link": "https://www.zhipin.com/job_detail/8757bf1080957eb61HB70tS8FFo~.html",
        "address": "北京海淀区创富大厦15层",
        "lng": 116.31444082576095,
        "lat": 39.98467846088285
    },
    {
        "name": "北唐",
        "link": "https://www.zhipin.com/job_detail/493d74da9c82039b0XB60tu7Ew~~.html",
        "address": "海淀区知春路锦秋家园3号楼408",
        "lng": 116.34177047554547,
        "lat": 39.9822079562257
    },
    {
        "name": "闪送科技",
        "link": "https://www.zhipin.com/job_detail/dff05c60c10254340XR50tq6Ew~~.html",
        "address": "北京市海淀区上地街道数字传媒大厦",
        "lng": 116.31176604564732,
        "lat": 40.049312872089814
    },
    {
        "name": "宇信科技",
        "link": "https://www.zhipin.com/job_detail/c189170e2f3f4cd81XF83tm4EFo~.html",
        "address": "北京朝阳区金台路(地铁站)环球金融中心",
        "lng": 116.466176837063,
        "lat": 39.924390253279455
    },
    {
        "name": "巴恩",
        "link": "https://www.zhipin.com/job_detail/e805d200e51f2fc01HBz3Nq4FVs~.html",
        "address": "北京市 海淀区 银谷大厦 银谷大厦",
        "lng": 116.3408071057674,
        "lat": 39.992806112834735
    },
    {
        "name": "作业帮",
        "link": "https://www.zhipin.com/job_detail/755d127606c979f91HB92NS8F1c~.html",
        "address": "北京海淀区汇苑开拓大厦",
        "lng": 116.30940922346387,
        "lat": 40.050218378240665
    },
    {
        "name": "中科软",
        "link": "https://www.zhipin.com/job_detail/ac8b8fabbcbcdfb71Xd43t28GFo~.html",
        "address": "北京东城区雍和宫壹中心A座",
        "lng": 116.42575929281186,
        "lat": 39.95875223794409
    },
    {
        "name": "云鸟",
        "link": "https://www.zhipin.com/job_detail/13f9e5e128e0ca001Xxz0tW8E1U~.html",
        "address": "北京朝阳区西门子大厦(2号门)",
        "lng": 116.47942103758668,
        "lat": 39.990944445332126
    },
    {
        "name": "软通动力",
        "link": "https://www.zhipin.com/job_detail/7f9544373b3370eb1X153926E1Q~.html",
        "address": "北京市 丰台区 金唐国际金融大厦",
        "lng": 116.3388063188881,
        "lat": 39.87262028848309
    },
    {
        "name": "用友政务",
        "link": "https://www.zhipin.com/job_detail/a3beb6878243fb471Xx60tW6EFA~.html",
        "address": "北京海淀区北清路68号用友产业园东区19号楼A座三层",
        "lng": 116.24139584713268,
        "lat": 40.07385016867707
    },
    {
        "name": "今日头条",
        "link": "https://www.zhipin.com/job_detail/c55b653af6280ffa1XF-29i0EFs~.html",
        "address": "北京海淀区中航广场",
        "lng": 116.33553003250668,
        "lat": 39.977750204477125
    },
    {
        "name": "中国航天科工",
        "link": "https://www.zhipin.com/job_detail/d1420f0e0db21e771XN42Nu-GVI~.html",
        "address": "北京海淀区永定路52号院99号楼",
        "lng": 116.27529527582378,
        "lat": 39.91779980709345
    },
    {
        "name": "京东集团",
        "link": "https://www.zhipin.com/job_detail/b124fce26b59da041X140tq8E1U~.html",
        "address": "北京大兴区科创十一街18号院京东大厦B座",
        "lng": 116.5691791582112,
        "lat": 39.79308716075335
    },
    {
        "name": "健客网",
        "link": "https://www.zhipin.com/job_detail/c673d80053e9be5a1Xdz2NW6GFc~.html",
        "address": "北京朝阳区化信大厦A座6层",
        "lng": 116.41340154735188,
        "lat": 39.981520736064745
    },
    {
        "name": "绛门科技",
        "link": "https://www.zhipin.com/job_detail/c8a1dd966b8b9ce41HZ52tu5EVc~.html",
        "address": "北京市 西城区 中国移动公司A区 北京市西城区南礼士路42号中国移动（阜成门地铁站2号线）",
        "lng": 116.36009861364522,
        "lat": 39.92567232221463
    },
    {
        "name": "CSII",
        "link": "https://www.zhipin.com/job_detail/33e30d76a2d9312d1XF-2tq7EFE~.html",
        "address": "北京朝阳区朝阳门外大街16号楼中国人寿大厦4层401",
        "lng": 116.44668709471847,
        "lat": 39.92944953233965
    },
    {
        "name": "探路者集团",
        "link": "https://www.zhipin.com/job_detail/6ebab123d4b50f9c1nd93Ny-EVc~.html",
        "address": "北京海淀区锦秋国际A座",
        "lng": 116.35561366977642,
        "lat": 39.981714754724734
    },
    {
        "name": "旷视科技",
        "link": "https://www.zhipin.com/job_detail/7d47067fc9e6a1ed1HB40t69FFs~.html",
        "address": "北京海淀区国际软件大厦9号楼",
        "lng": 116.30435456076606,
        "lat": 40.05105956227072
    },
    {
        "name": "拾柒网络",
        "link": "https://www.zhipin.com/job_detail/a6390ec4b27c57c81Xx50tS1FVE~.html",
        "address": "北京朝阳区望京洛娃大厦",
        "lng": 116.48038822875638,
        "lat": 40.01840536297747
    },
    {
        "name": "信雅达",
        "link": "https://www.zhipin.com/job_detail/5b6b16ab7d1f77a11XR_3N20FFY~.html",
        "address": "北京海淀区永澄北路2号院（中国邮政储蓄银行软件研发中心）地铁15号线，永丰站",
        "lng": 116.23436039203959,
        "lat": 40.085319606171055
    },
    {
        "name": "大志天成",
        "link": "https://www.zhipin.com/job_detail/e0b54c8e938064511HB93967FFQ~.html",
        "address": "北京朝阳区SOHO尚都南塔2001-2101",
        "lng": 116.4599823971477,
        "lat": 39.923298850026356
    },
    {
        "name": "柯莱特集团",
        "link": "https://www.zhipin.com/job_detail/77d9a472ccf70c081Hd839q_GVU~.html",
        "address": "北京市 朝阳区 国门大厦",
        "lng": 116.4553861532262,
        "lat": 39.96462620047072
    },
    {
        "name": "滴滴出行",
        "link": "https://www.zhipin.com/job_detail/c1a70d243dc51ad21nx43NW6FlI~.html",
        "address": "北京海淀区优盛大厦D座",
        "lng": 116.34581171937373,
        "lat": 39.996954886766574
    },
    {
        "name": "蚂蚁金服",
        "link": "https://www.zhipin.com/job_detail/0a809085a16e49eb1XBy3tq9E1I~.html",
        "address": "北京朝阳区环球金融中心",
        "lng": 116.466176837063,
        "lat": 39.924390253279455
    },
    {
        "name": "巴恩",
        "link": "https://www.zhipin.com/job_detail/2410e876c1a992571HBz3Nq1EFM~.html",
        "address": "北京市 海淀区 银谷大厦 银谷大厦",
        "lng": 116.3408071057674,
        "lat": 39.992806112834735
    },
    {
        "name": "今日头条",
        "link": "https://www.zhipin.com/job_detail/9bf975d28eba52fd1HF63dq0EFI~.html",
        "address": "北京海淀区海淀区",
        "lng": 116.23967780102151,
        "lat": 40.03316204507791
    },
    {
        "name": "中文未来",
        "link": "https://www.zhipin.com/job_detail/36c771f743260adc1XRz3Ny4FVQ~.html",
        "address": "北京海淀区北京立思辰大厦",
        "lng": 116.35968784458638,
        "lat": 40.021754205533405
    },
    {
        "name": "神州新桥",
        "link": "https://www.zhipin.com/job_detail/6d0968478a5920181Hd63t24EFU~.html",
        "address": "北京市 西城区 金融街",
        "lng": 116.36843698093135,
        "lat": 39.92934036696799
    },
    {
        "name": "巴恩",
        "link": "https://www.zhipin.com/job_detail/394739953ca364741HBz3NW9FFo~.html",
        "address": "北京市 海淀区 银谷大厦 银谷大厦",
        "lng": 116.3408071057674,
        "lat": 39.992806112834735
    },
    {
        "name": "中科院信工所",
        "link": "https://www.zhipin.com/job_detail/08084f68ae6d52dd1XF43N-5FFU~.html",
        "address": "北京市 海淀区 益园C区 C1中段",
        "lng": 116.24226444298453,
        "lat": 39.95776495599534
    },
    {
        "name": "蚂蚁金服",
        "link": "https://www.zhipin.com/job_detail/5d7788b1196586381HZ739i9F1s~.html",
        "address": "北京朝阳区阿里中心·望京B座",
        "lng": 116.48934660381059,
        "lat": 40.002410085222614
    },
    {
        "name": "腾信软创",
        "link": "https://www.zhipin.com/job_detail/fc34902574d9ffc11nd52Nq6GFc~.html",
        "address": "北京市 石景山区 石门路1号院1号楼",
        "lng": 116.16453284461234,
        "lat": 39.93630545118869
    },
    {
        "name": "天猫",
        "link": "https://www.zhipin.com/job_detail/8828425e2de442631XN52966ElA~.html",
        "address": "北京朝阳区望京绿地中心",
        "lng": 116.49283942763348,
        "lat": 40.00643926445486
    },
    {
        "name": "用友政务",
        "link": "https://www.zhipin.com/job_detail/8b7cd7c8931e1cbf1Xx60tW4GFU~.html",
        "address": "北京海淀区北清路68号用友产业园东区19号楼A座三层",
        "lng": 116.24139584713268,
        "lat": 40.07385016867707
    },
    {
        "name": "新橙科技",
        "link": "https://www.zhipin.com/job_detail/31c9181bbe4ef2f21HZ539y4E1o~.html",
        "address": "北京朝阳区南岸1号礼安门A座",
        "lng": 116.52583220825132,
        "lat": 39.91235946773288
    },
    {
        "name": "北京柯莱特",
        "link": "https://www.zhipin.com/job_detail/6c2c1c98e207e5931Hd-2965GVU~.html",
        "address": "北京西城区柯莱特集团",
        "lng": 116.39538716580745,
        "lat": 39.97425533838651
    },
    {
        "name": "北京易盟天地",
        "link": "https://www.zhipin.com/job_detail/28ae0c3bce8be3501nN93Ni0FFA~.html",
        "address": "北京石景山区北京万商大厦5",
        "lng": 116.22564503198178,
        "lat": 39.912233907395546
    },
    {
        "name": "九次方大数据",
        "link": "https://www.zhipin.com/job_detail/a2f109337add5a071X193tm9GVo~.html",
        "address": "北京市 海淀区 九次方大数据",
        "lng": 116.23967780102151,
        "lat": 40.03316204507791
    },
    {
        "name": "亿达信息",
        "link": "https://www.zhipin.com/job_detail/c5ec1d2dedb693691HF43Ni8Flo~.html",
        "address": "北京市 海淀区 中国技术交易大厦",
        "lng": 116.31404683165918,
        "lat": 39.990133766537
    },
    {
        "name": "尚德机构",
        "link": "https://www.zhipin.com/job_detail/ff0e5a5240494a431n142tq0FlM~.html",
        "address": "北京朝阳区朝来高科技产业园",
        "lng": 116.47837112775069,
        "lat": 40.02463474551505
    },
    {
        "name": "北明软件",
        "link": "https://www.zhipin.com/job_detail/a109a328655a04461HVz39q0EFM~.html",
        "address": "北京西城区庄胜广场办公楼第一座东翼(北门)",
        "lng": 116.38196829786212,
        "lat": 39.90378002112085
    },
    {
        "name": "新橙科技",
        "link": "https://www.zhipin.com/job_detail/462ca790bae10c9b1Hd-39i-FFY~.html",
        "address": "北京朝阳区南岸一号-礼安门A座",
        "lng": 116.52583220825132,
        "lat": 39.91235946773288
    },
    {
        "name": "领英聚贤",
        "link": "https://www.zhipin.com/job_detail/40ac818e5347aace1XJy29W4E1o~.html",
        "address": "北京海淀区中关村",
        "lng": 116.25500255435337,
        "lat": 40.0800959304039
    },
    {
        "name": "国新健康",
        "link": "https://www.zhipin.com/job_detail/ff3bde7ee1092ca91HV42dm9FVU~.html",
        "address": "北京市 朝阳区 西坝河西里甲18号楼",
        "lng": 116.44451222251948,
        "lat": 39.972777012616895
    },
    {
        "name": "水滴互助",
        "link": "https://www.zhipin.com/job_detail/469e3117f208a1941XV539S-FFM~.html",
        "address": "北京朝阳区朝来高科技产业园",
        "lng": 116.47837112775069,
        "lat": 40.02463474551505
    },
    {
        "name": "奥博杰天",
        "link": "https://www.zhipin.com/job_detail/967e329dcba81f4c1XF-3t6-FFA~.html",
        "address": "北京朝阳区现代柏联大厦4层401室",
        "lng": 116.44971088448884,
        "lat": 39.91044682554939
    },
    {
        "name": "中电系统",
        "link": "https://www.zhipin.com/job_detail/86c1c1570d4f8d901XJ50t--F1Q~.html",
        "address": "北京昌平区中国电子网络安全和信息产业基地A座三层",
        "lng": 116.30284127530393,
        "lat": 40.117131552885354
    },
    {
        "name": "北京新氧万维",
        "link": "https://www.zhipin.com/job_detail/66a3d8bd3ec5846e1HZ_2ty5FVE~.html",
        "address": "北京朝阳区望京SOHO中心T3(西南门)A座三层",
        "lng": 116.48729411855085,
        "lat": 40.00199975211264
    },
    {
        "name": "三多传媒",
        "link": "https://www.zhipin.com/job_detail/dd4cbaa1fc766dd71HZz3928FlE~.html",
        "address": "北京朝阳区SOHO现代城C座1707",
        "lng": 116.4818246956228,
        "lat": 39.91301493175815
    },
    {
        "name": "北京中科建友",
        "link": "https://www.zhipin.com/job_detail/fbcf7229885486951HB70ti9E1c~.html",
        "address": "北京海淀区金隅嘉华大厦A座701",
        "lng": 116.31383437881284,
        "lat": 40.04207024125412
    },
    {
        "name": "跨越新科技",
        "link": "https://www.zhipin.com/job_detail/8a297649f3c094fb1XN939-0FFA~.html",
        "address": "北京朝阳区宏源大厦802",
        "lng": 116.49710975104475,
        "lat": 39.99119175900615
    },
    {
        "name": "宝利软件",
        "link": "https://www.zhipin.com/job_detail/dccb9e85bd7c20ce1HZy3tm9FVM~.html",
        "address": "北京市 丰台区 丰台区 北京市丰台区六里桥甲1号北京市电能调试安装服务处（红顶楼）",
        "lng": 116.31270079720845,
        "lat": 39.88957379946762
    },
    {
        "name": "同程艺龙",
        "link": "https://www.zhipin.com/job_detail/0eb07440472c90b61HZz2NW0EVM~.html",
        "address": "北京朝阳区同程艺龙大厦",
        "lng": 116.52169489108084,
        "lat": 39.95895316640668
    },
    {
        "name": "信雅达",
        "link": "https://www.zhipin.com/job_detail/d2c8880fbfd3bdec1Hd52tS6EFE~.html",
        "address": "北京朝阳区达美中心",
        "lng": 116.52257242823364,
        "lat": 39.943483134725
    },
    {
        "name": "罗塞塔科技",
        "link": "https://www.zhipin.com/job_detail/ed00eb9a552a38f41XNz0ti4Flc~.html",
        "address": "北京海淀区金隅嘉华大厦912",
        "lng": 116.31465071125012,
        "lat": 40.04246765094717
    },
    {
        "name": "义利北冰洋",
        "link": "https://www.zhipin.com/job_detail/88da131120be07301nx72tW-GFc~.html",
        "address": "北京大兴区北兴路东段6号一轻食品集团",
        "lng": 116.36333721072066,
        "lat": 39.780725634265615
    },
    {
        "name": "健客网",
        "link": "https://www.zhipin.com/job_detail/6e95af5d1444539f1Xd62dW7FlI~.html",
        "address": "北京朝阳区化信大厦A座6层",
        "lng": 116.41340154735188,
        "lat": 39.981520736064745
    },
    {
        "name": "浙大网新",
        "link": "https://www.zhipin.com/job_detail/533a34669a889ba71XB839S5E1c~.html",
        "address": "北京市 海淀区 苏州街(地铁站) 中国电子大厦B座5层，临近海淀黄庄、中关村、苏州街地铁站",
        "lng": 116.31878529980054,
        "lat": 39.98561150644749
    },
    {
        "name": "融易通",
        "link": "https://www.zhipin.com/job_detail/f0644067c3e23be01Hd-2t6_E1M~.html",
        "address": "北京西城区招商银行(北京分行)月坛南街一号院三号楼",
        "lng": 116.36246253064559,
        "lat": 39.919927574482976
    },
    {
        "name": "腾信软创",
        "link": "https://www.zhipin.com/job_detail/613543930c6e358d1HBz2tW0EVM~.html",
        "address": "北京市 石景山区 石门路1号院19号楼",
        "lng": 116.16352379240587,
        "lat": 39.93653387805648
    },
    {
        "name": "掌腾",
        "link": "https://www.zhipin.com/job_detail/f9c12215a17e16c41HB929i1FFo~.html",
        "address": "北京海淀区华业大厦（清华大学东南门）3区3层306（禅境股份联合办公区）",
        "lng": 116.33938924550301,
        "lat": 40.00234196022562
    },
    {
        "name": "软通动力",
        "link": "https://www.zhipin.com/job_detail/17d95c0cfb0e6aa61HB93Ni1GVc~.html",
        "address": "北京市 海淀区 百度科技园",
        "lng": 116.28142159184245,
        "lat": 40.05050481827517
    },
    {
        "name": "中科软",
        "link": "https://www.zhipin.com/job_detail/2470c8a3ba4205a01Hd4392_GFc~.html",
        "address": "北京海淀区中科软商务楼",
        "lng": 116.33106947314094,
        "lat": 39.98720611023201
    },
    {
        "name": "北京信赛瑞德",
        "link": "https://www.zhipin.com/job_detail/476fd0485aee48b31HBz0t6_FVo~.html",
        "address": "北京市 朝阳区 望京",
        "lng": 116.48934660381059,
        "lat": 40.002410085222614
    },
    {
        "name": "纵情向前",
        "link": "https://www.zhipin.com/job_detail/14817fe49bf191f61HR90920FFI~.html",
        "address": "北京朝阳区众运大厦D座",
        "lng": 116.47757793117182,
        "lat": 40.01829818602334
    },
    {
        "name": "奔步广告",
        "link": "https://www.zhipin.com/job_detail/a65aef5c015256e01n190960Flo~.html",
        "address": "北京朝阳区望京SOHO塔2B座",
        "lng": 116.48663399874685,
        "lat": 40.00300211001728
    },
    {
        "name": "小米",
        "link": "https://www.zhipin.com/job_detail/3ebaa44a67b4413a1Xd63ty5GVI~.html",
        "address": "北京海淀区清河顺事嘉业创业园",
        "lng": 116.34048538842868,
        "lat": 40.033542228492415
    },
    {
        "name": "健客网",
        "link": "https://www.zhipin.com/job_detail/34df47bbf7fd06201Xx83t-_F1E~.html",
        "address": "北京朝阳区化信大厦A座6层",
        "lng": 116.41340154735188,
        "lat": 39.981520736064745
    },
    {
        "name": "软通动力",
        "link": "https://www.zhipin.com/job_detail/b3eb11a0060dc8401HZ-3Nu9GFc~.html",
        "address": "北京市 西城区 京润大厦",
        "lng": 116.34942132201462,
        "lat": 39.92843138768979
    },
    {
        "name": "北京纬创",
        "link": "https://www.zhipin.com/job_detail/bae8efc90b8fe2f51Hd40ti1EFM~.html",
        "address": "北京市 昌平区 泰康商学院 北京市昌平区科学园路（中关村生命科学园）泰康商学院-东门",
        "lng": 116.27820893423693,
        "lat": 40.103970229752534
    },
    {
        "name": "公众信息",
        "link": "https://www.zhipin.com/job_detail/a0f53c5908f885f81Xd92NW8EFc~.html",
        "address": "北京西城区中国联通大厦A座",
        "lng": 116.3646535588692,
        "lat": 39.92072775936354
    },
    {
        "name": "滴滴出行",
        "link": "https://www.zhipin.com/job_detail/20f1175d5a98c7491HR90ti5ElA~.html",
        "address": "北京海淀区未名视通研发楼",
        "lng": 116.28905858015248,
        "lat": 40.05647326327339
    },
    {
        "name": "特斯联",
        "link": "https://www.zhipin.com/job_detail/eccb1fb418f843b41HF43969Els~.html",
        "address": "北京朝阳区启皓大厦西塔11层",
        "lng": 116.46267799459321,
        "lat": 39.953434125858266
    },
    {
        "name": "京东云",
        "link": "https://www.zhipin.com/job_detail/eac651aa92b596d01Xd909u4EFE~.html",
        "address": "北京朝阳区北辰世纪中心A座",
        "lng": 116.39374476240286,
        "lat": 40.00655564465765
    },
    {
        "name": "跟谁学",
        "link": "https://www.zhipin.com/job_detail/828a6177057c26991HF72tq6GVE~.html",
        "address": "北京海淀区博彦科技大厦C座6层",
        "lng": 116.2892630425713,
        "lat": 40.05495635793754
    },
    {
        "name": "新致软件",
        "link": "https://www.zhipin.com/job_detail/b3640a8a69ef03771Xxy3di6FVY~.html",
        "address": "北京朝阳区朝阳公园(地铁站)",
        "lng": 116.39561359718581,
        "lat": 40.00711334700486
    },
    {
        "name": "柯莱特集团",
        "link": "https://www.zhipin.com/job_detail/89fb22e823118b6f1HR92ti9F1Y~.html",
        "address": "北京市 海淀区 优客工场(爱康社区)",
        "lng": 116.23967780102151,
        "lat": 40.03316204507791
    },
    {
        "name": "东易日盛",
        "link": "https://www.zhipin.com/job_detail/f2fcb04ac1e6127b1HB50tu5E1c~.html",
        "address": "北京朝阳区电子城·IT产业园东易大厦",
        "lng": 116.51223807551116,
        "lat": 39.99183076672986
    },
    {
        "name": "华正明天",
        "link": "https://www.zhipin.com/job_detail/48fdba67bf5ec1771HR93du6GFs~.html",
        "address": "北京市 海淀区 北京华正明天信息技术有限公司(西南门)",
        "lng": 116.32649059166835,
        "lat": 39.97777066330668
    },
    {
        "name": "联想利泰",
        "link": "https://www.zhipin.com/job_detail/0c96b4fb13a346621HV-3t24GVc~.html",
        "address": "北京市 海淀区 西二旗",
        "lng": 116.31505293383036,
        "lat": 40.06148973650146
    },
    {
        "name": "思享时代",
        "link": "https://www.zhipin.com/job_detail/7045bc6e611000721XZ62Ni7E1Q~.html",
        "address": "北京朝阳区胜古南里甲34号",
        "lng": 116.41793451283664,
        "lat": 39.975715912096625
    },
    {
        "name": "高德地图",
        "link": "https://www.zhipin.com/job_detail/3bcde20476e6b7cd1HB90t66E1c~.html",
        "address": "北京朝阳区首开广场",
        "lng": 116.47964640986287,
        "lat": 39.99906083791644
    },
    {
        "name": "汉克时代",
        "link": "https://www.zhipin.com/job_detail/f710b1363a46e4981HZ929q9GFY~.html",
        "address": "北京市 朝阳区 北京国际会议中心",
        "lng": 116.52169489108084,
        "lat": 39.95895316640668
    },
    {
        "name": "国家电网",
        "link": "https://www.zhipin.com/job_detail/77860814c95b14401XV-0ti8FlI~.html",
        "address": "北京丰台区时代财富天地A座29楼",
        "lng": 116.29417972374618,
        "lat": 39.837940069936934
    },
    {
        "name": "思源科技集团",
        "link": "https://www.zhipin.com/job_detail/eab71e9c7d01a3391XJy39-7ElQ~.html",
        "address": "北京朝阳区首开广场",
        "lng": 116.47964640986287,
        "lat": 39.99906083791644
    },
    {
        "name": "大连信雅达",
        "link": "https://www.zhipin.com/job_detail/8c8d751b60906c571XR_3Nu8E1E~.html",
        "address": "北京市 西城区 新盛大厦A座",
        "lng": 116.36578536003208,
        "lat": 39.926275919099155
    },
    {
        "name": "新橙科技",
        "link": "https://www.zhipin.com/job_detail/d974d0de52f44e561nN60t-0FlU~.html",
        "address": "北京市 朝阳区 高碑店 南岸礼安门A座",
        "lng": 116.52583220825132,
        "lat": 39.91235946773288
    },
    {
        "name": "弘毅知行",
        "link": "https://www.zhipin.com/job_detail/8817c56b8208f2401HF409q7GFI~.html",
        "address": "北京西城区祥龙商务大厦",
        "lng": 116.36441550162093,
        "lat": 39.896521004411944
    },
    {
        "name": "京东数字科技",
        "link": "https://www.zhipin.com/job_detail/9243911d901425551nN92ty6Flo~.html",
        "address": "北京大兴区京东大厦A1",
        "lng": 116.56960090995322,
        "lat": 39.792305213499255
    },
    {
        "name": "高德地图",
        "link": "https://www.zhipin.com/job_detail/53485abf85e64eaf1nJ83d28FlM~.html",
        "address": "北京朝阳区方恒国际中心A座",
        "lng": 116.4869956116299,
        "lat": 39.99549853955202
    },
    {
        "name": "蜜蜂汇金",
        "link": "https://www.zhipin.com/job_detail/1dc671b33b7cdb381HZ82tq6Flc~.html",
        "address": "北京朝阳区莱锦文化创意产业园CN09号楼",
        "lng": 116.50438108499527,
        "lat": 39.92048656414438
    },
    {
        "name": "好未来",
        "link": "https://www.zhipin.com/job_detail/fc471d1e8518e3701nJ43tu9EFM~.html",
        "address": "北京海淀区丹棱SOHO16层",
        "lng": 116.31619888510164,
        "lat": 39.989656007396036
    },
    {
        "name": "开运联合",
        "link": "https://www.zhipin.com/job_detail/8084b8d31c4386f81HV_0t64FFM~.html",
        "address": "北京朝阳区龙湖未来时写字楼803",
        "lng": 116.6094625468226,
        "lat": 39.930331520049165
    },
    {
        "name": "北京京航航天304所",
        "link": "https://www.zhipin.com/job_detail/063050810b1c78691Xxy3Nu1FVQ~.html",
        "address": "北京丰台区云岗北区西里1号院",
        "lng": 116.1688388864473,
        "lat": 39.81615350095573
    },
    {
        "name": "北京百度网讯有限公司",
        "link": "https://www.zhipin.com/job_detail/661d5f2b7e35f0f51X1-39i-ElQ~.html",
        "address": "北京海淀区鹏寰国际大厦",
        "lng": 116.3084489690093,
        "lat": 40.06145168072597
    },
    {
        "name": "腾讯",
        "link": "https://www.zhipin.com/job_detail/4474f10bd95be7d11HB609S-FVQ~.html",
        "address": "北京市 海淀区 海淀区",
        "lng": 116.23967780102151,
        "lat": 40.03316204507791
    },
    {
        "name": "宇信科技",
        "link": "https://www.zhipin.com/job_detail/4e2e909477d9c79f1HB42dm-GFA~.html",
        "address": "北京西城区光大大厦复兴门外大街6号",
        "lng": 116.3532949707805,
        "lat": 39.912393677070625
    },
    {
        "name": "登云美业",
        "link": "https://www.zhipin.com/job_detail/d93019875a2a98801HBz09W8F1Q~.html",
        "address": "北京市 大兴区 登云美业 北京市亦庄经济技术开发区荣华路南路2号院大族广场T5-26层",
        "lng": 116.51908837187253,
        "lat": 39.79689698012348
    },
    {
        "name": "火花思维",
        "link": "https://www.zhipin.com/job_detail/039b01ee39d16f261Xx43966FlM~.html",
        "address": "北京朝阳区启明国际大厦B座",
        "lng": 116.48155933797177,
        "lat": 40.01846189856247
    },
    {
        "name": "浪潮集团",
        "link": "https://www.zhipin.com/job_detail/d5db2e30d483a51d1XJ83du0E1E~.html",
        "address": "北京市 西城区 置地星座A座 华远街置地星座A座",
        "lng": 116.37790232368316,
        "lat": 39.91524299813332
    },
    {
        "name": "高德地图",
        "link": "https://www.zhipin.com/job_detail/ed7b2c5e6433b9e11HB73dm4Elc~.html",
        "address": "北京市朝阳区北京国家广告产业园区a b北京国家广告产业园区",
        "lng": 116.47999999369125,
        "lat": 39.9091741714093
    },
    {
        "name": "跨越速运",
        "link": "https://www.zhipin.com/job_detail/85212104fbb7b3161X1429u4FVQ~.html",
        "address": "北京朝阳区酒仙桥宏源大厦802",
        "lng": 116.49710975104475,
        "lat": 39.99119175900615
    },
    {
        "name": "联想利泰",
        "link": "https://www.zhipin.com/job_detail/8c5efa1b63ee7a311HBz2d-8GFc~.html",
        "address": "北京市 西城区 中化大厦",
        "lng": 116.35797422801248,
        "lat": 39.91237239079515
    },
    {
        "name": "滴滴出行",
        "link": "https://www.zhipin.com/job_detail/ee2ab50c3a4f15150X160ty-EA~~.html",
        "address": "北京海淀区滴滴大厦",
        "lng": 116.23967780102151,
        "lat": 40.03316204507791
    },
    {
        "name": "亿美汇金",
        "link": "https://www.zhipin.com/job_detail/0b5fcd4f842c380c1XJ93d-6Flo~.html",
        "address": "北京朝阳区万科公园五号-20写字楼106",
        "lng": 116.48369845222165,
        "lat": 39.931926594903366
    },
    {
        "name": "北京爱康鼎科技",
        "link": "https://www.zhipin.com/job_detail/85450f95186240181XN62dW1EFU~.html",
        "address": "北京市 朝阳区 房地置业大厦 1110室",
        "lng": 116.42995045305007,
        "lat": 39.99659485367408
    },
    {
        "name": "大米未来科技有限公司",
        "link": "https://www.zhipin.com/job_detail/a0e4e448300bb3bf1XJ_3N6_GFQ~.html",
        "address": "北京东城区雍和大厦F座(北门)",
        "lng": 116.4272129307881,
        "lat": 39.95505565240067
    },
    {
        "name": "爱康国宾",
        "link": "https://www.zhipin.com/job_detail/89749d5d06fe443e1XF93t-8EVo~.html",
        "address": "北京建国路世茂大厦B座6层爱康国宾集团总部",
        "lng": 116.47785214252198,
        "lat": 39.91334712706158
    },
    {
        "name": "助力软件",
        "link": "https://www.zhipin.com/job_detail/1070c9c6ac342f970XJ82d65Fw~~.html",
        "address": "北京市 海淀区 朗丽兹西山花园酒店 9037室",
        "lng": 116.2556927251716,
        "lat": 40.07297303505625
    },
    {
        "name": "用友网络科技",
        "link": "https://www.zhipin.com/job_detail/61d74c6ae3d4e7021XR509S8FVU~.html",
        "address": "北京市 海淀区 用友软件(永腾南路)",
        "lng": 116.24118392069337,
        "lat": 40.073352858156035
    },
    {
        "name": "百度",
        "link": "https://www.zhipin.com/job_detail/dab70daa0ca17a2f1Hd_2N-1Fls~.html",
        "address": "北京海淀区百度科技园",
        "lng": 116.28142159184245,
        "lat": 40.05050481827517
    },
    {
        "name": "大连文思海辉",
        "link": "https://www.zhipin.com/job_detail/5db228fab88a4a051HF62d61E1A~.html",
        "address": "北京朝阳区金瓯大厦",
        "lng": 116.41310246102387,
        "lat": 39.9793128592569
    },
    {
        "name": "天学网",
        "link": "https://www.zhipin.com/job_detail/6a1d5fe6d920d33b1Hd72Nq8FlA~.html",
        "address": "北京海淀区北京市海淀区万泉河路68号紫金大厦5层 北京市海淀区万泉河路68号紫金大厦5层 ",
        "lng": 116.31454447314898,
        "lat": 39.972651849717444
    },
    {
        "name": "VIPKID",
        "link": "https://www.zhipin.com/job_detail/5a2ac26db1f2966c1HB93968EFs~.html",
        "address": "北京朝阳区达美中心",
        "lng": 116.52257242823364,
        "lat": 39.943483134725
    },
    {
        "name": "上海睿民科技",
        "link": "https://www.zhipin.com/job_detail/d8564f7462800e891HVy3Nu6GFI~.html",
        "address": "北京市 丰台区 金伟凯 北京市丰台区海鹰路8号院金伟凯大厦3号楼B座9层",
        "lng": 116.28801271358961,
        "lat": 39.8332103278027
    },
    {
        "name": "腾讯",
        "link": "https://www.zhipin.com/job_detail/489460f68033f7a91HR_09S4FFE~.html",
        "address": "北京海淀区中国技术交易大厦",
        "lng": 116.31404683165918,
        "lat": 39.990133766537
    },
    {
        "name": "北京千喜鹤",
        "link": "https://www.zhipin.com/job_detail/f2849bda50ad59ce1HB-2N65FFA~.html",
        "address": "北京市 海淀区 用友软件园(永腾南路)",
        "lng": 116.24213845653506,
        "lat": 40.07246533008522
    },
    {
        "name": "杭州海康威视",
        "link": "https://www.zhipin.com/job_detail/21dc2ffd4463dc551HBz0ty9ElU~.html",
        "address": "北京昌平区金域国际中心B座",
        "lng": 116.32058525970344,
        "lat": 40.0727159336754
    },
    {
        "name": "佰钧成技术",
        "link": "https://www.zhipin.com/job_detail/d344a6030446efa41nJy0924EVs~.html",
        "address": "北京朝阳区国门大厦C座",
        "lng": 116.4559631088044,
        "lat": 39.96401394632844
    },
    {
        "name": "车车科技",
        "link": "https://www.zhipin.com/job_detail/5d4c35fa9986504a1Xx_2du6Flc~.html",
        "address": "北京市 东城区 车车科技 美术馆后街大取灯胡同2号",
        "lng": 116.41411099580637,
        "lat": 39.93618452149999
    },
    {
        "name": "拍库",
        "link": "https://www.zhipin.com/job_detail/a7179cf24749fa9e1XV83dy0Fls~.html",
        "address": "北京朝阳区朝外大街甲6号万通中心AB座A2001室",
        "lng": 116.46272023920642,
        "lat": 39.92579148893414
    },
    {
        "name": "第四范式",
        "link": "https://www.zhipin.com/job_detail/a4271a1d3542ff3d1XRy3N26E1o~.html",
        "address": "北京海淀区上地(地铁站)颐泉汇",
        "lng": 116.32081159406482,
        "lat": 40.04159385005843
    },
    {
        "name": "北京字节跳动",
        "link": "https://www.zhipin.com/job_detail/4a57cdbc119b7fed1XF62tS4F1U~.html",
        "address": "北京海淀区中航广场",
        "lng": 116.33553003250668,
        "lat": 39.977750204477125
    },
    {
        "name": "医渡云",
        "link": "https://www.zhipin.com/job_detail/f86a4928ff9bb8ad1HB_0tS4FFs~.html",
        "address": "北京海淀区健康智谷",
        "lng": 116.23967780102151,
        "lat": 40.03316204507791
    },
    {
        "name": "智源物联",
        "link": "https://www.zhipin.com/job_detail/dca1e469c2df15721nJ509W-FVQ~.html",
        "address": "北京市海淀区辉煌国际大厦1号楼 20层",
        "lng": 116.30895068072138,
        "lat": 40.059365181097476
    },
    {
        "name": "文思海辉",
        "link": "https://www.zhipin.com/job_detail/ab01dd0b178e78e81XR92N68EVY~.html",
        "address": "北京市 朝阳区 中建财富国际中心",
        "lng": 116.41304919240544,
        "lat": 39.98520203760546
    },
    {
        "name": "携程旅行网",
        "link": "https://www.zhipin.com/job_detail/049a1e52b921353e1Hd53N6_EVQ~.html",
        "address": "马甸东路金澳国际大厦18层",
        "lng": 116.38508836172889,
        "lat": 39.97696118900999
    },
    {
        "name": "北京信赛瑞德",
        "link": "https://www.zhipin.com/job_detail/262f0424b96151641Hd63d-9ElU~.html",
        "address": "北京市 朝阳区 望京",
        "lng": 116.48934660381059,
        "lat": 40.002410085222614
    },
    {
        "name": "美篇",
        "link": "https://www.zhipin.com/job_detail/6f0f2d2aa0f0070d1X192Nm8GFM~.html",
        "address": "北京市 海淀区 知春路",
        "lng": 116.34177047554547,
        "lat": 39.9822079562257
    },
    {
        "name": "Gogotalk",
        "link": "https://www.zhipin.com/job_detail/e10d08f333719c881HB53tS_EFM~.html",
        "address": "北京市朝阳区逸园商务楼4层",
        "lng": 116.4196544148542,
        "lat": 40.00542230362509
    },
    {
        "name": "udesk",
        "link": "https://www.zhipin.com/job_detail/5166ac8b7d5cf2551Hdz0965FFE~.html",
        "address": "北京市 西城区 成铭大厦C座 1603",
        "lng": 116.36369841936622,
        "lat": 39.9450589334919
    },
    {
        "name": "恬橙",
        "link": "https://www.zhipin.com/job_detail/82f557623b6244f91HF63N2_GFQ~.html",
        "address": "北京市 海淀区 海淀区",
        "lng": 116.23967780102151,
        "lat": 40.03316204507791
    },
    {
        "name": "零度智能",
        "link": "https://www.zhipin.com/job_detail/d42929c50ae7f44b1HBy09y0E1s~.html",
        "address": "北京朝阳区国家计算机网络应急技术处理协调中心北京市裕民路甲3号",
        "lng": 116.39384806753651,
        "lat": 39.98070826553906
    },
    {
        "name": "阿里影业",
        "link": "https://www.zhipin.com/job_detail/dd601dd3dc8c7f2f1XZ52tS_FlU~.html",
        "address": "北京朝阳区润世中心2座20楼",
        "lng": 116.47828882410155,
        "lat": 39.961371684265444
    },
    {
        "name": "点点未来",
        "link": "https://www.zhipin.com/job_detail/3ac9d696faf3ddf91XV52t6-FFU~.html",
        "address": "北京海淀区上地东路1号环洋大厦",
        "lng": 116.30894053256404,
        "lat": 40.06019848997135
    },
    {
        "name": "杰森聚力",
        "link": "https://www.zhipin.com/job_detail/642a109063fc583f1XB93ti0ElA~.html",
        "address": "北京朝阳区天畅园7号楼7号楼1106室",
        "lng": 116.42243270850832,
        "lat": 40.039416276838985
    },
    {
        "name": "比特大陆",
        "link": "https://www.zhipin.com/job_detail/ce5d32b7b7d9fa051Xx43Nu6EFo~.html",
        "address": "北京海淀区奥北科技园20号楼",
        "lng": 116.38312097115352,
        "lat": 40.03876066241551
    },
    {
        "name": "传习新天",
        "link": "https://www.zhipin.com/job_detail/52156714e51b26bf1HF73d-_EFY~.html",
        "address": "北京市 朝阳区 朝阳门 外大街20号联合大厦",
        "lng": 116.44515380309437,
        "lat": 39.92857545556497
    },
    {
        "name": "华夏电通",
        "link": "https://www.zhipin.com/job_detail/262e7d73680a40951Xd929S-FlU~.html",
        "address": "北京海淀区丰秀中路3号院6号楼",
        "lng": 116.24258535274662,
        "lat": 40.08060512717641
    },
    {
        "name": "亿达信息",
        "link": "https://www.zhipin.com/job_detail/b0b3ca5b6344bcb51Hd93N68F1Q~.html",
        "address": "北京市 朝阳区 国航世纪大厦 朝阳区霄云路40号：国航世纪大厦-朝阳亮",
        "lng": 116.46884819103941,
        "lat": 39.96078014495332
    },
    {
        "name": "易鑫金融",
        "link": "https://www.zhipin.com/job_detail/2e14fa352697c0f61XFz2Ni7FVs~.html",
        "address": "北京海淀区北京新世纪日航饭店写字楼",
        "lng": 116.33511114635924,
        "lat": 39.94259608030879
    },
    {
        "name": "一龄博士俱乐部",
        "link": "https://www.zhipin.com/job_detail/18f4c6be44ec8f6c1Xx529u0EVM~.html",
        "address": "北京通州区一龄医疗集团",
        "lng": 116.74007918067626,
        "lat": 39.80981488385131
    },
    {
        "name": "炼金台",
        "link": "https://www.zhipin.com/job_detail/aa8d2dde560d345d1XB73tq8EFc~.html",
        "address": "北京朝阳区国贸",
        "lng": 116.46783125979533,
        "lat": 39.91879946341572
    },
    {
        "name": "图知天下",
        "link": "https://www.zhipin.com/job_detail/ed460397f20639b01HB429u0FVA~.html",
        "address": "北京海淀区世纪科贸大厦B座",
        "lng": 116.34059112707195,
        "lat": 39.990057584904946
    },
    {
        "name": "好律师网",
        "link": "https://www.zhipin.com/job_detail/8d723cade7e50aae1Hd50tu_E1M~.html",
        "address": "北京朝阳区新华联大厦(东门)六楼",
        "lng": 116.4948240908272,
        "lat": 39.93051461923758
    },
    {
        "name": "方正璞华",
        "link": "https://www.zhipin.com/job_detail/9371da22bbbf46751HF72NW8EVs~.html",
        "address": "北京市 顺义区 中国航信高科技产业园(南门)",
        "lng": 116.53419320026002,
        "lat": 40.124871446401286
    },
    {
        "name": "58集团",
        "link": "https://www.zhipin.com/job_detail/887eed7696c5d30c1HF63t28GFA~.html",
        "address": "北京朝阳区电子城·IT产业园",
        "lng": 116.51223807551116,
        "lat": 39.99183076672986
    },
    {
        "name": "Gogotalk",
        "link": "https://www.zhipin.com/job_detail/4486ca981b73d9911XJ409S5GFA~.html",
        "address": "北京朝阳区逸园商务楼(南门)4层",
        "lng": 116.4196544148542,
        "lat": 40.00542230362509
    },
    {
        "name": "原子链科技有限公司",
        "link": "https://www.zhipin.com/job_detail/e7c2eb7f1cba09b51XF52tm9FVI~.html",
        "address": "北京朝阳区北辰新纪元2新纪元2号楼1303",
        "lng": 116.42325900944185,
        "lat": 40.03765737196284
    },
    {
        "name": "丞朵科技",
        "link": "https://www.zhipin.com/job_detail/768c2c328b4ef9051XF92Nm5E1A~.html",
        "address": "北京朝阳区望京SOHOT2",
        "lng": 116.48934660381059,
        "lat": 40.002410085222614
    },
    {
        "name": "宜车时代/宜买车",
        "link": "https://www.zhipin.com/job_detail/43183438a93c0deb1HV409i9EFA~.html",
        "address": "北京朝阳区朝外SOHO D座(西南门)",
        "lng": 116.46132207608694,
        "lat": 39.92541357854906
    },
    {
        "name": "今日头条",
        "link": "https://www.zhipin.com/job_detail/3431425f0e79db6a1XJ_2Nu4F1M~.html",
        "address": "北京市 海淀区 花园北路",
        "lng": 116.36676654320841,
        "lat": 39.98742333366068
    },
    {
        "name": "中科软",
        "link": "https://www.zhipin.com/job_detail/adb14cdfa4ef640b1XB42du8FFs~.html",
        "address": "北京大兴区新华人寿亦庄后援中心",
        "lng": 116.35090008110447,
        "lat": 39.73731943589337
    },
    {
        "name": "文思海辉",
        "link": "https://www.zhipin.com/job_detail/7cab62e3b92a3eee1XF82dq4FVI~.html",
        "address": "北京朝阳区朝阳大悦城青年路达美广场",
        "lng": 116.52537868254511,
        "lat": 39.93118719625801
    },
    {
        "name": "硬核聚视",
        "link": "https://www.zhipin.com/job_detail/43c8ab4396d0205d1n1y3N24F1A~.html",
        "address": "北京朝阳区望京SOHOT3 b座26层",
        "lng": 116.48934660381059,
        "lat": 40.002410085222614
    },
    {
        "name": "易汇众盟",
        "link": "https://www.zhipin.com/job_detail/3e869a1ba507433e1Xd639q6GVQ~.html",
        "address": "北京海淀区中关村东升科技园·学院园D口6层A616",
        "lng": 116.36434205526412,
        "lat": 40.009323939147635
    },
    {
        "name": "唐普",
        "link": "https://www.zhipin.com/job_detail/c437fb0ccdf8eaff1HZz3di4F1o~.html",
        "address": "北京市 朝阳区 望京街",
        "lng": 116.48696634034485,
        "lat": 39.99992791149938
    },
    {
        "name": "长亮科技",
        "link": "https://www.zhipin.com/job_detail/35b0f09ce6d705091XB72d67FFI~.html",
        "address": "北京海淀区中国普天大厦西侧7层",
        "lng": 116.31840816868981,
        "lat": 39.989628816013074
    },
    {
        "name": "水滴筹",
        "link": "https://www.zhipin.com/job_detail/d6ca5de25561c95d1HR909m6FVI~.html",
        "address": "北京朝阳区望京诚盈中心",
        "lng": 116.47219415718264,
        "lat": 40.026811963389356
    },
    {
        "name": "南海智辰",
        "link": "https://www.zhipin.com/job_detail/e92ffdd5b834e8651HRz3t-_GVs~.html",
        "address": "北京市 朝阳区 新港大厦(酒仙桥路)",
        "lng": 116.4966521272688,
        "lat": 39.9770278083322
    },
    {
        "name": "ADVENT",
        "link": "https://www.zhipin.com/job_detail/1163f09a14b1903e1Xd80tq8FVE~.html",
        "address": "北京东城区神华国华投资大厦",
        "lng": 116.43904707732226,
        "lat": 39.945039067396436
    },
    {
        "name": "腾讯",
        "link": "https://www.zhipin.com/job_detail/20b0f26664a46d761XFy3t6_FVY~.html",
        "address": "北京海淀区中国技术交易大厦",
        "lng": 116.31404683165918,
        "lat": 39.990133766537
    },
    {
        "name": "中科软科技",
        "link": "https://www.zhipin.com/job_detail/d4f6e7b98da91e721XB_29m8EFo~.html",
        "address": "北京海淀区北清路与温阳路交叉口",
        "lng": 116.168679930389,
        "lat": 40.07480229887919
    },
    {
        "name": "上海睿民科技",
        "link": "https://www.zhipin.com/job_detail/571e647cb617fc271HVy3Nu4FVo~.html",
        "address": "北京市 丰台区 金伟凯 北京市丰台区海鹰路8号院金伟凯大厦3号楼B座9层",
        "lng": 116.28801271358961,
        "lat": 39.8332103278027
    },
    {
        "name": "凯锐科技",
        "link": "https://www.zhipin.com/job_detail/d9ce10339942ad591XF60tm5GVI~.html",
        "address": "北京海淀区杏石口路益园C区C区12号楼西段四层402室",
        "lng": 116.24226444298453,
        "lat": 39.95776495599534
    },
    {
        "name": "健客网",
        "link": "https://www.zhipin.com/job_detail/98130af2af13734a1HVy3NW1FFU~.html",
        "address": "北京朝阳区化信大厦A座6层",
        "lng": 116.41340154735188,
        "lat": 39.981520736064745
    },
    {
        "name": "站酷网",
        "link": "https://www.zhipin.com/job_detail/7c3747b929c1f3e61n1z3ti0F1U~.html",
        "address": "北京朝阳区鸿运大厦(酒仙桥中路)",
        "lng": 116.49877137369573,
        "lat": 39.98232561964015
    },
    {
        "name": "中渡科技",
        "link": "https://www.zhipin.com/job_detail/d5b43e662232ff461HB93d21EVs~.html",
        "address": "北京朝阳区华贸写字楼3座2907",
        "lng": 116.48868884385514,
        "lat": 39.91531737461829
    },
    {
        "name": "省钱快报",
        "link": "https://www.zhipin.com/job_detail/8171522dd322e9de1XR-3926EVc~.html",
        "address": "北京东城区箭厂胡同22号",
        "lng": 116.41829121917499,
        "lat": 39.95385375050168
    },
    {
        "name": "北京优天下",
        "link": "https://www.zhipin.com/job_detail/f07feda0af259ca71X1639i6Fls~.html",
        "address": "北京朝阳区化信大厦",
        "lng": 116.41318226019723,
        "lat": 39.98142471522481
    },
    {
        "name": "腾讯",
        "link": "https://www.zhipin.com/job_detail/1bb653d626ec05061HB629S7GVE~.html",
        "address": "北京市 海淀区 希格玛大厦",
        "lng": 116.34369311793017,
        "lat": 39.983178379048304
    },
    {
        "name": "百度",
        "link": "https://www.zhipin.com/job_detail/2baaf9641efbfedf1XF439-0GFU~.html",
        "address": "北京海淀区百度科技园",
        "lng": 116.28142159184245,
        "lat": 40.05050481827517
    },
    {
        "name": "亿阳信通",
        "link": "https://www.zhipin.com/job_detail/3c720b4b9b5796281Xdy3tq6EFY~.html",
        "address": "北京海淀区西山赢府国际商务中心B座",
        "lng": 116.22687128996904,
        "lat": 39.962722419980686
    },
    {
        "name": "中信百信银行",
        "link": "https://www.zhipin.com/job_detail/e51e5acee98759021HZ73N21FFY~.html",
        "address": "北京朝阳区中建财富国际中心",
        "lng": 116.41304919240544,
        "lat": 39.98520203760546
    },
    {
        "name": "天融信",
        "link": "https://www.zhipin.com/job_detail/4e2a8a15c86b06ec1Hdy2t29FFA~.html",
        "address": "北京市 海淀区 中关村软件园9号楼 国际软件大厦204",
        "lng": 116.30371568858227,
        "lat": 40.050453870668626
    },
    {
        "name": "北京新水源景",
        "link": "https://www.zhipin.com/job_detail/44ee2864f7c2b1b81X1_3ti_ElM~.html",
        "address": "北京丰台区海鹰路1号院6号楼5",
        "lng": 116.29401955407715,
        "lat": 39.83640419493873
    },
    {
        "name": "火花思维",
        "link": "https://www.zhipin.com/job_detail/0d068d050f9334c81HB40t-0EFA~.html",
        "address": "北京朝阳区启明国际大厦B座202",
        "lng": 116.48155933797177,
        "lat": 40.01846189856247
    },
    {
        "name": "北京掌上先机",
        "link": "https://www.zhipin.com/job_detail/ad37d7c778106ad01XZz09W0EFc~.html",
        "address": "北京海淀区花园路13号天博中润2楼216室",
        "lng": 116.37041505325755,
        "lat": 39.979562356826314
    },
    {
        "name": "忽客时代（北京）...",
        "link": "https://www.zhipin.com/job_detail/ff0b50eb941da9e41XJ53NS1E1M~.html",
        "address": "北京朝阳区望京",
        "lng": 116.48934660381059,
        "lat": 40.002410085222614
    },
    {
        "name": "本来生活网",
        "link": "https://www.zhipin.com/job_detail/248f5e67e690ee601XB939u6GFA~.html",
        "address": "北京市 朝阳区 住邦2000商务中心1号楼B区 15层",
        "lng": 116.62600731133237,
        "lat": 39.89579420209917
    },
    {
        "name": "蚂蚁金服",
        "link": "https://www.zhipin.com/job_detail/d6e2d99e8831c43d1HZ509q6FlI~.html",
        "address": "北京朝阳区朝阳区",
        "lng": 116.52169489108084,
        "lat": 39.95895316640668
    },
    {
        "name": "宇信科技",
        "link": "https://www.zhipin.com/job_detail/ddbd4c8076f8d9d21HR_3tW7EFI~.html",
        "address": "北京朝阳区朝阳区朝阳区青年路达美中心T2号楼",
        "lng": 116.52257242823364,
        "lat": 39.943483134725
    },
    {
        "name": "悟空保",
        "link": "https://www.zhipin.com/job_detail/12f73ddb6a5c17731Hdy29m9GVQ~.html",
        "address": "北京朝阳区南沙滩甲1号院京辰大厦A座2F",
        "lng": 116.38582278577147,
        "lat": 40.0063390700444
    },
    {
        "name": "联想利泰",
        "link": "https://www.zhipin.com/job_detail/c63775fed885f3401HZ-0t26GVM~.html",
        "address": "北京市 海淀区 联想全球总部",
        "lng": 116.32125697483498,
        "lat": 39.9890209675813
    },
    {
        "name": "中国电信集成",
        "link": "https://www.zhipin.com/job_detail/ea6d432f404b6b0d0XB90tu-GA~~.html",
        "address": "北京市西城区新街口街道冠华大厦",
        "lng": 116.37444881060769,
        "lat": 39.94601079676227
    },
    {
        "name": "MS",
        "link": "https://www.zhipin.com/job_detail/6996a91859e6efdc1Hd63dm8EFM~.html",
        "address": "北京海淀区微软亚太研发集团",
        "lng": 116.31681826405585,
        "lat": 39.98600122098798
    },
    {
        "name": "北京小壹咨询公司",
        "link": "https://www.zhipin.com/job_detail/f369d9283ec565141Hd909u9GVE~.html",
        "address": "北京市 朝阳区 通惠大厦",
        "lng": 116.52130572583742,
        "lat": 39.90989162514863
    },
    {
        "name": "亿达信息",
        "link": "https://www.zhipin.com/job_detail/317b40f0c4aeca041HF429i8ElQ~.html",
        "address": "北京市 朝阳区 大望路",
        "lng": 116.4815992209398,
        "lat": 39.921827640269136
    },
    {
        "name": "君凯电子科技有限公司",
        "link": "https://www.zhipin.com/job_detail/b44b5458ea1453421HZz0tW_FlE~.html",
        "address": "北京市 朝阳区 国门大厦",
        "lng": 116.4553861532262,
        "lat": 39.96462620047072
    },
    {
        "name": "e城e家",
        "link": "https://www.zhipin.com/job_detail/2f15da5a2318540d1HB72dy5Fls~.html",
        "address": "北京朝阳区摩托罗拉大厦9层",
        "lng": 116.49237527137987,
        "lat": 40.01215578655873
    },
    {
        "name": "威阳普惠",
        "link": "https://www.zhipin.com/job_detail/207a96e4e36a04e31Xd_2N2-E1A~.html",
        "address": "北京朝阳区建外SOHO东区6号楼1603",
        "lng": 116.46550239467595,
        "lat": 39.91196618484391
    },
    {
        "name": "博彦科技",
        "link": "https://www.zhipin.com/job_detail/ccc1e7ded8864c3a1HB929S1ElA~.html",
        "address": "北京市 朝阳区 阿里中心.望京A座",
        "lng": 116.48934660381059,
        "lat": 40.002410085222614
    },
    {
        "name": "软通动力",
        "link": "https://www.zhipin.com/job_detail/15e6653b508d480f1HBz3N66EVQ~.html",
        "address": "北京市 朝阳区 安定门外大街",
        "lng": 116.41396410848259,
        "lat": 39.97123307176794
    },
    {
        "name": "博思软件",
        "link": "https://www.zhipin.com/job_detail/08734c11997dfcf61HF63d61F1I~.html",
        "address": "北京市 海淀区 中关村新兴产业联盟大厦",
        "lng": 116.2892857355651,
        "lat": 40.05353252312176
    },
    {
        "name": "腾讯",
        "link": "https://www.zhipin.com/job_detail/1078e15c8b282b3e1HV92N-4GFE~.html",
        "address": "北京海淀区中国技术交易大厦",
        "lng": 116.31404683165918,
        "lat": 39.990133766537
    },
    {
        "name": "诸葛找房网",
        "link": "https://www.zhipin.com/job_detail/28322434fbd3c6fc1Xd82d-5Elo~.html",
        "address": "北京市 朝阳区 首开梦想加空间",
        "lng": 116.52169489108084,
        "lat": 39.95895316640668
    },
    {
        "name": "爱米欢",
        "link": "https://www.zhipin.com/job_detail/0ebf4e7e575ac2911X1739W9FFM~.html",
        "address": "北京市 海淀区 永丰基地",
        "lng": 116.24867648034184,
        "lat": 40.07943847486225
    },
    {
        "name": "中科软",
        "link": "https://www.zhipin.com/job_detail/ba874e7abcad332c1HBy3N25GVs~.html",
        "address": "北京市 海淀区 北京理工大学中关村校区国防科技园",
        "lng": 116.32294862424591,
        "lat": 39.96694634964199
    },
    {
        "name": "玄武时代",
        "link": "https://www.zhipin.com/job_detail/adb5253ad1f27a3b1HF40ti6F1A~.html",
        "address": "北京朝阳区北京全时天地在线网络信息股份有限公司",
        "lng": 116.51239239541472,
        "lat": 39.939903450565076
    },
    {
        "name": "北明软件",
        "link": "https://www.zhipin.com/job_detail/7f51f73b84c83f381HF63tu0GVs~.html",
        "address": "北京西城区北京庄胜广场东翼925",
        "lng": 116.38214218196138,
        "lat": 39.90283738471885
    },
    {
        "name": "纬创软件",
        "link": "https://www.zhipin.com/job_detail/53e650d41d8685af1Hd63dS0EFA~.html",
        "address": "北京市 石景山区 石景山区",
        "lng": 116.18455581036746,
        "lat": 39.93886654464553
    },
    {
        "name": "网富天下(北京)电子商",
        "link": "https://www.zhipin.com/job_detail/0f52e6110c1d937f1nZy2N60F1U~.html",
        "address": "北京丰台区丰台科技园诺德中心4号楼17层",
        "lng": 116.30504266278669,
        "lat": 39.83564236083002
    },
    {
        "name": "亚信科技",
        "link": "https://www.zhipin.com/job_detail/ee931f7e002df7c11XJ62t--FVI~.html",
        "address": "北京海淀区中关村软件园二期亚信大厦",
        "lng": 116.28771911051842,
        "lat": 40.05051879105166
    },
    {
        "name": "芯易",
        "link": "https://www.zhipin.com/job_detail/e2a85893f2eba3551XN42du8GVE~.html",
        "address": "北京昌平区珠江摩尔国际大厦5号楼2-602",
        "lng": 116.2978464244819,
        "lat": 40.10521275176961
    },
    {
        "name": "嘉域祥美",
        "link": "https://www.zhipin.com/job_detail/8f6cdd4f393ba8791Hdz39S5E1E~.html",
        "address": "北京大兴区大族广场",
        "lng": 116.51908837187253,
        "lat": 39.79689698012348
    },
    {
        "name": "博锐尚格",
        "link": "https://www.zhipin.com/job_detail/e8633a34dd5aa1661XN42NW4FVI~.html",
        "address": "北京海淀区海淀区西小口路18号新华创新大厦5层",
        "lng": 116.35153952550885,
        "lat": 40.052613135056
    },
    {
        "name": "东合美科技",
        "link": "https://www.zhipin.com/job_detail/b98ad372f6f6a4001XVy3di0E1o~.html",
        "address": "北京市 丰台区 万丰商务写字楼 421室",
        "lng": 116.30006552565101,
        "lat": 39.87604322471662
    },
    {
        "name": "轻图信息",
        "link": "https://www.zhipin.com/job_detail/314b3fb307cae0bf1Xd409y7GFI~.html",
        "address": "北京海淀区国图文化大厦6F-18",
        "lng": 116.31571154987094,
        "lat": 39.93961827002679
    },
    {
        "name": "上海弘雅",
        "link": "https://www.zhipin.com/job_detail/43a7e22b4d47b7c71HZ82NS0F1A~.html",
        "address": "北京朝阳区北土城(地铁站)朝阳区北土城",
        "lng": 116.40062281820111,
        "lat": 39.98323062246691
    },
    {
        "name": "掌通未来科技",
        "link": "https://www.zhipin.com/job_detail/156b8c031764a8451HR80t67Fls~.html",
        "address": "北京市 海淀区 维亚大厦 1205室",
        "lng": 116.31218190899672,
        "lat": 39.983610390021
    },
    {
        "name": "原子链科技有限公司",
        "link": "https://www.zhipin.com/job_detail/f81d437efc8af3311XF90tq_E1o~.html",
        "address": "北京朝阳区北辰新纪元2新纪元2号楼1303",
        "lng": 116.42325900944185,
        "lat": 40.03765737196284
    },
    {
        "name": "同创蓝天",
        "link": "https://www.zhipin.com/job_detail/a6096acdd0ef40661XZy2NS6ElY~.html",
        "address": "北京市 丰台区 同创蓝天投资管理(北京)有限公司 丰台区郑常庄326号同创蓝天大厦B座609室",
        "lng": 116.28197409913788,
        "lat": 39.89377557003712
    },
    {
        "name": "闪送",
        "link": "https://www.zhipin.com/job_detail/3bebb1652a68ee291XZ52d24FVQ~.html",
        "address": "北京市海淀区西北旺东路10号院东区7号楼博彦科技大厦C座4层",
        "lng": 116.2892630425713,
        "lat": 40.05495635793754
    },
    {
        "name": "畅捷通",
        "link": "https://www.zhipin.com/job_detail/764a3b7b56c1ff071HVz0ty0EFo~.html",
        "address": "北京海淀区用友产业园(北京)北清路68号东区19C",
        "lng": 116.24166169705514,
        "lat": 40.07142021215021
    },
    {
        "name": "币世界",
        "link": "https://www.zhipin.com/job_detail/e308a300dc75587d1HR709S4FVI~.html",
        "address": "北京市 朝阳区 浦项中心A座 27楼",
        "lng": 116.4956073485539,
        "lat": 40.005535033739775
    },
    {
        "name": "北勘",
        "link": "https://www.zhipin.com/job_detail/de2f8a34961d57661nx5096-GVc~.html",
        "address": "北京海淀区北京市勘察设计研究院(羊坊店路)勘A楼",
        "lng": 116.32749334315997,
        "lat": 39.90731058370277
    },
    {
        "name": "北京智扬",
        "link": "https://www.zhipin.com/job_detail/1804c3405e0ccf2a1nd63N24FVo~.html",
        "address": "北京朝阳区三元桥(地铁站)霄云中心B座",
        "lng": 116.47070807330967,
        "lat": 39.965591642715495
    },
    {
        "name": "我在彼岸",
        "link": "https://www.zhipin.com/job_detail/2f4ad1f469d5fbb51XZz09q7EFM~.html",
        "address": "北京市 通州区 北京ONE",
        "lng": 116.6623994641526,
        "lat": 39.91383690005004
    },
    {
        "name": "中公教育",
        "link": "https://www.zhipin.com/job_detail/565b94eb3de08de31HBy3ti6FFQ~.html",
        "address": "北京市 海淀区 清林苑6号楼",
        "lng": 116.36437322646532,
        "lat": 40.021379514960245
    },
    {
        "name": "浩天桢伟",
        "link": "https://www.zhipin.com/job_detail/50f3f0ab401914f91HRy39-0FlU~.html",
        "address": "北京市 朝阳区 安贞门(地铁站)",
        "lng": 116.41318346482493,
        "lat": 39.98331327377498
    },
    {
        "name": "青鸟消防",
        "link": "https://www.zhipin.com/job_detail/3bc5170c60bab90b1HZ82tu1GFo~.html",
        "address": "北京海淀区北大青鸟集团",
        "lng": 116.3251105626422,
        "lat": 39.99883560529724
    },
    {
        "name": "伴鱼",
        "link": "https://www.zhipin.com/job_detail/c29d1cde843092481HZz29S4GVU~.html",
        "address": "北京市 朝阳区 健翔大厦 512",
        "lng": 116.38757865863654,
        "lat": 39.98650165722025
    },
    {
        "name": "大象慧云",
        "link": "https://www.zhipin.com/job_detail/55c360362baf1bf11HB53dm_FVU~.html",
        "address": "北京市 海淀区 数码大厦A座 30层",
        "lng": 116.32064155830636,
        "lat": 40.03115456497042
    },
    {
        "name": "云智汇",
        "link": "https://www.zhipin.com/job_detail/b0956c45cc124c901XR83dm8GFQ~.html",
        "address": "北京朝阳区兆维大厦",
        "lng": 116.49696057124532,
        "lat": 39.98043370568175
    },
    {
        "name": "亿达信息",
        "link": "https://www.zhipin.com/job_detail/ad5b892d645189051HF73tm9EVs~.html",
        "address": "北京市 朝阳区 国航世纪大厦",
        "lng": 116.46884819103941,
        "lat": 39.96078014495332
    },
    {
        "name": "亿阳信通",
        "link": "https://www.zhipin.com/job_detail/aa80e720b6a09d141Xdy3tq6E1E~.html",
        "address": "北京海淀区西山赢府国际商务中心B座",
        "lng": 116.22687128996904,
        "lat": 39.962722419980686
    },
    {
        "name": "九章云极",
        "link": "https://www.zhipin.com/job_detail/c90e69fcd9a2c4301n172di6FlU~.html",
        "address": "北京海淀区宏达商务中心4002",
        "lng": 116.3168111970864,
        "lat": 40.0358397210968
    },
    {
        "name": "瓜子二手车直卖网",
        "link": "https://www.zhipin.com/job_detail/7bfd7a3614897b081HR83t2-F1E~.html",
        "address": "北京朝阳区诺金中心",
        "lng": 116.48813242982904,
        "lat": 39.98298661690434
    },
    {
        "name": "文思海辉",
        "link": "https://www.zhipin.com/job_detail/1f1ae9ff0ed0fce71HR62du9Flc~.html",
        "address": "北京市 昌平区 泰康创新中心",
        "lng": 116.21645635689414,
        "lat": 40.2217235498323
    },
    {
        "name": "中咨泰克",
        "link": "https://www.zhipin.com/job_detail/b4f7ef9fa90b396a1n173NW_FlY~.html",
        "address": "北京海淀区北四环中路229号海泰大厦8层",
        "lng": 116.37258652537021,
        "lat": 39.99459792921658
    },
    {
        "name": "和缓医疗",
        "link": "https://www.zhipin.com/job_detail/6e481603b74ffb661nB80tW6Fw~~.html",
        "address": "北京东城区东直门来福士",
        "lng": 116.44964997308712,
        "lat": 39.93716244542226
    },
    {
        "name": "绛门科技",
        "link": "https://www.zhipin.com/job_detail/d4ed55f9313c9e921HB_2ty7EVQ~.html",
        "address": "北京市 朝阳区 北京海关驻朝阳口岸",
        "lng": 116.48491205398257,
        "lat": 39.84113628583231
    },
    {
        "name": "云智汇信息",
        "link": "https://www.zhipin.com/job_detail/ef54a4f03dc16cf51XJy3921GFY~.html",
        "address": "北京海淀区四维图新大厦",
        "lng": 116.25220497587654,
        "lat": 40.07853891754702
    },
    {
        "name": "今日头条",
        "link": "https://www.zhipin.com/job_detail/3cf8d72d2e9604d91nN83tm1ElU~.html",
        "address": "北京朝阳区世通国际大厦d座8楼",
        "lng": 116.59289889274453,
        "lat": 39.91675901587997
    },
    {
        "name": "网优北方",
        "link": "https://www.zhipin.com/job_detail/4050e5fec79517321XZ409i-FFA~.html",
        "address": "北京海淀区物美慧科大厦东区9层D室",
        "lng": 116.2825527677847,
        "lat": 39.939650535497876
    },
    {
        "name": "站酷网",
        "link": "https://www.zhipin.com/job_detail/157ba5cfe07e33801n1z3t61EVY~.html",
        "address": "北京朝阳区鸿运大厦(酒仙桥中路)",
        "lng": 116.49877137369573,
        "lat": 39.98232561964015
    },
    {
        "name": "北京理正",
        "link": "https://www.zhipin.com/job_detail/999f343d0934f9de1nJy3dm6Flc~.html",
        "address": "北京西城区车公庄大街甲4号物华大厦4楼CAD平台部互联网+产品组",
        "lng": 116.35951805316702,
        "lat": 39.93750738622506
    },
    {
        "name": "青牛软件",
        "link": "https://www.zhipin.com/job_detail/1ba64c6e4511100d1HBy0967FVo~.html",
        "address": "北京海淀区裕惠大厦A座9层",
        "lng": 116.30531502901732,
        "lat": 39.9308103766019
    },
    {
        "name": "科蓝软件",
        "link": "https://www.zhipin.com/job_detail/2255972169d14d201HR_29m_EVA~.html",
        "address": "北京市 朝阳区 达美中心 T2  26层",
        "lng": 116.52257242823364,
        "lat": 39.943483134725
    },
    {
        "name": "竞技世界",
        "link": "https://www.zhipin.com/job_detail/f5333d1bfcb9add81nd90926FFo~.html",
        "address": "北京市海淀区上地",
        "lng": 116.32130625497695,
        "lat": 40.041168799505876
    },
    {
        "name": "好未来",
        "link": "https://www.zhipin.com/job_detail/724ac78745a4523f1Xd93t-8EFc~.html",
        "address": "北京市 海淀区 丹棱SOHO",
        "lng": 116.32000640959893,
        "lat": 39.984289891345675
    },
    {
        "name": "京东集团",
        "link": "https://www.zhipin.com/job_detail/298ee8f7b2ef03a41nN609W-EFs~.html",
        "address": "北京大兴区京东集团总部",
        "lng": 116.42519459737913,
        "lat": 39.652790118364464
    },
    {
        "name": "北京中税税务咨询...",
        "link": "https://www.zhipin.com/job_detail/22ad2068cf8eeb0c1XB93Ni6GFA~.html",
        "address": "北京东城区东直门南大街1号楼来福士中心办公楼19层",
        "lng": 116.4390869126801,
        "lat": 39.94612929567308
    },
    {
        "name": "知行智能",
        "link": "https://www.zhipin.com/job_detail/1ee6f9443b8758b41HV539W6FFs~.html",
        "address": "北京朝阳区国门大厦A座四层4H",
        "lng": 116.4564215733943,
        "lat": 39.96400861345892
    },
    {
        "name": "智能一点",
        "link": "https://www.zhipin.com/job_detail/5c971682d2056f411nBy2tS5F1s~.html",
        "address": "北京市 海淀区 中关村SOHO大厦 709",
        "lng": 116.31665312675733,
        "lat": 39.98944674234003
    },
    {
        "name": "完美世界",
        "link": "https://www.zhipin.com/job_detail/5ca7a09e9d4510941XB839W4ElY~.html",
        "address": "北京市 朝阳区 北美国际商务中心",
        "lng": 116.4352045395711,
        "lat": 40.011550199157774
    },
    {
        "name": "天易数聚",
        "link": "https://www.zhipin.com/job_detail/5c2b89203042133a1X183Ny6EFY~.html",
        "address": "北京市 西城区 昌盛大厦",
        "lng": 116.38999900808736,
        "lat": 39.91016058660222
    },
    {
        "name": "金控数据股份",
        "link": "https://www.zhipin.com/job_detail/84c0f6e3084933221XZ52NS6ElQ~.html",
        "address": "北京丰台区华夏幸福创新中心C座6层610",
        "lng": 116.30746783703641,
        "lat": 39.82949198445185
    },
    {
        "name": "旭金科技",
        "link": "https://www.zhipin.com/job_detail/1df2dace21354ac01nJy3tS4FVo~.html",
        "address": "北京市 西城区 东旭资本控股集团 兴盛街2号东门D座4层",
        "lng": 116.36827771136443,
        "lat": 39.91584847365596
    },
    {
        "name": "助力软件",
        "link": "https://www.zhipin.com/job_detail/18345fe0498e43cf1HZ62t6-Elo~.html",
        "address": "北京海淀区朗丽兹西山花园酒店写字楼9037",
        "lng": 116.2556927251716,
        "lat": 40.07297303505625
    },
    {
        "name": "点点未来",
        "link": "https://www.zhipin.com/job_detail/7d62b47ab51fc48c1XZy0tW-F1c~.html",
        "address": "北京海淀区上地东路1号环洋大厦",
        "lng": 116.30894053256404,
        "lat": 40.06019848997135
    },
    {
        "name": "柯莱特集团",
        "link": "https://www.zhipin.com/job_detail/aab3c4dfddf720821Hd62NW1EFU~.html",
        "address": "北京市 海淀区 优客工场(爱康社区)",
        "lng": 116.23967780102151,
        "lat": 40.03316204507791
    },
    {
        "name": "法大大",
        "link": "https://www.zhipin.com/job_detail/b7e197c1660aa2e61Hd62Nu0GFI~.html",
        "address": "北京朝阳区尚8设计创意产业园d103",
        "lng": 116.49845951705659,
        "lat": 39.90901494077247
    },
    {
        "name": "中公教育",
        "link": "https://www.zhipin.com/job_detail/d6123efa156500271HF72tu4E1Y~.html",
        "address": "北京市 海淀区 汉华世纪大厦",
        "lng": 116.35743356577349,
        "lat": 40.01661132246572
    },
    {
        "name": "爱米欢",
        "link": "https://www.zhipin.com/job_detail/fcbd666070c843441XZz2ty4F1o~.html",
        "address": "北京海淀区新材料创业大厦",
        "lng": 116.24230979034499,
        "lat": 40.08214067516278
    },
    {
        "name": "思源互联科技",
        "link": "https://www.zhipin.com/job_detail/e27fcaa5e42e78871HV-09q1E1c~.html",
        "address": "北京市 朝阳区 思源大厦",
        "lng": 116.4647582743237,
        "lat": 40.00205018129788
    },
    {
        "name": "卓普长兴",
        "link": "https://www.zhipin.com/job_detail/57148bcdc18253d71X1729-8FFI~.html",
        "address": "北京海淀区辉煌时代100080",
        "lng": 116.23967780102151,
        "lat": 40.03316204507791
    }
]